Номер БС,Адрес,Операторы 800 МГц,Операторы 1800 МГц,Операторы 2600 МГц,Широта,Долгота
200519,"г. Ушачи, ул. Ленинская, 25",,"M, V, L","M, V",55.179344444444,28.61301944
200521,"г. Полоцк, ул. Успенская, 7",,"M, V, L","M, V",55.483972222222,28.793
200522,"г. Полоцк, ул. Строительная, 30/13",,"M, V, L","M, V",55.458877777778,28.72093611
200523,"г. Новополоцк, ул. Молодежная, 49Б",,"M, V, L","M, V, L",55.53625,28.6495
200524,"г. Новополоцк, ул. Олимпийская, 4",,"M, V, L","M, V",55.519625,28.670175
200525,"г. Новополоцк, ул. Я. Коласа, 14",,"M, V, L","M, V",55.530158333333,28.67380278
200526,"г. Полоцк, ул. Ефросиньи Полоцкой, 29",,"M, V, L","M, V, L",55.494975,28.76900833
200527,"г. Новополоцк, ОАО «Нафтан»",,"M, V, L","M, V, L",55.521527777778,28.56063889
200528,"г. Новополоцк, ул. Калинина, 5А",,"M, V, L","M, V, L",55.531536111111,28.660075
200534,"г. Докшицы, ул. Ленинская, 24",,"M, V, L","M, V",54.890338888889,27.76786667
200538,"г. Полоцк, ул. Мариненко, 16",,"M, V, L","M, V, L",55.469027777778,28.76077778
200542,"г. Верхнедвинск, ул. Московского, 1",,"M, V, L","M, V",55.786688888889,27.94673056
200543,"г. Миоры, ул. Свердлова",,"M, V, L","M, V",55.627638888889,27.62644444
200551,"г. Витебск, пр. Черняховского, 19",,"M, V, L","M, V, L",55.175302777778,30.19956389
200552,"г. Витебск, ул. Правды, 30",,"M, V, L","M, V",55.188,30.2165
200553,"г. Витебск, проезд С. Панковой, 6",,"M, V, L","M, V",55.190752777778,30.25971389
200554,"г. Витебск, ул. Бровки, 13а",,"M, V, L","M, V, L",55.167480555556,30.23892778
200556,"г. Витебск, ул. Бумагина, 21",,"M, V, L","M, V",55.196522222222,30.18109722
200557,"г. Витебск, ул. Ленинградская, 217г",,"M, V, L","M, V, L",55.224452777778,30.12225278
200558,"г. Витебск, ул. Революционная, 30",,"M, V, L","M, V",55.203808333333,30.189125
200559,"г. Витебск, ул. Людникова, 11",,"M, V, L","M, V, L",55.202633333333,30.21713889
200560,"г. Витебск, ул. Гагарина, 189",,"M, V, L","M, V",55.229233333333,30.27506111
200561,"г. Витебск, пр. Московский, 29",,"M, V, L","M, V, L",55.176016666667,30.22126111
200562,"г. Витебск, ул. Зеньковой, 1",,"M, V, L","M, V",55.1915,30.18935278
200563,"г. Витебск, ул. Чкалова, 36, к. 2",,"M, V, L","M, V, L",55.166636111111,30.21518056
200564,"г. Витебск, ул. Лазо, 88а/2",,"M, V, L","M, V, L",55.201155555556,30.24956944
200565,"г. Витебск, ул. Воинов интернационалистов, 1-2",,"M, V, L","M, V, L",55.162111111111,30.20288889
200566,"г. Витебск, ул. 14-я Полоцкая, 35а/1",,"M, V, L","M, V, L",55.191561111111,30.15435278
200567,"г. Витебск, ул. Марка Шагала, 8а",,"M, V, L","M, V, L",55.189258333333,30.20496667
200568,"г. Витебск, ул. Смоленская, 11А-1",,"M, V, L","M, V, L",55.187444444444,30.23605556
200569,"г. Витебск, ул. Горького, 62",,"M, V, L","M, V",55.172754038309,30.15292795
200585,"г.п. Шарковщина, ул. Рабочая, 3",,"M, V, L","M, V",55.372916666667,27.48044444
200586,"г. Глубокое, ул. Ленина, 42",,"M, V, L","M, V, L",55.139244444444,27.68539722
200587,а.г. Дуниловичи,"M, V, L",,,55.064083333,27.226138889
200593,"г. Городок, ул. Баграмяна, 42а",,"M, V, L","M, V, L",55.453916666667,29.99394444
200595,"г.п. Лиозно, ул. Ленина, 76",,"M, V, L","M, V",55.024777777778,30.79555556
200605,н.п. Плоское,"M, V, L",,,54.441666667,29.537222222
200607,"г. Толочин, пл. 40-лет Октября, 7",,"M, V, L","M, V, L",54.409263888889,29.69194444
200610,"г. Дубровно, ул. Красноармейская, 9Б",,"M, V, L","M, V",54.573363888889,30.69016667
200615,п. Жабыки,"M, V, L",,,54.655833333,30.667222222
200631,"г. Орша, ул. Кирова, 7",,"M, V, L","M, V, L",54.507861111111,30.41447222
200632,"г. Орша, ул. Владимира Ленина, 238",,"M, V, L",,54.548291666667,30.44803889
200635,"г. Орша, ул. Могилёвская, 85",,"M, V, L","M, V, L",54.4886,30.42824722
200636,"г. Барань, ул. Набережная, 1",,"M, V, L","M, V, L",54.477008333333,30.31800556
200637,"г. Орша, ул. Новаторов, 9",,"M, V, L","M, V, L",54.492336111111,30.402675
200638,"г. Орша, ул. Ленина, 46",,"M, V, L","M, V",54.515166666667,30.43125
200639,"г. Орша, 4-й пер. Чернышевского, 4",,"M, V, L","M, V",54.524805555556,30.43163889
200683,"г. Чашники, ул. Советская, 74",,"M, V, L","M, V, L",54.849166666667,29.15666667
200685,"г.п. Бешенковичи, ул. Чуклая, 13",,"M, V, L","M, V",55.045416666667,29.45647222
200690,"г. Сенно, ул. Машерова, 2",,"M, V, L","M, V, L",54.813786111111,29.70685556
200898,"г. Поставы, ул. Красноармейская",,"M, V, L","M, V, L",55.116583333333,26.86175
200899,"г. Поставы, ул. 17 Сентября, 90",,"M, V, L","M, V",55.116166666667,26.82691667
201051,"г. Витебск, ул. Ленина, 26а",,"M, V, L",,55.191305966,30.203471922
201109,"г. Витебск, пр. Московский, 130-1",,"M, V, L","M, V",55.175205555556,30.26702778
201137,"г. Витебск, Бешенковичское шоссе, 50/7",,"M, V, L",,55.147038888889,30.12373889
201140,"г. Глубокое, ул. Советская, 240А",,"M, V, L","M, V, L",55.168888888889,27.67971944
201165, н.п. Зорька,"V, L",,,55.466638889,27.889083333
201178,"г. Витебск, Бешенковичское шоссе, 3 км",,"M, V, L",,55.150288888889,30.14033333
201198,"г. Новополоцк, ул. Денисова",,"M, V, L","M, V",55.511388888889,28.69166666
201199,"г. Новополоцк, ул. Калинина, 2а-4",,"M, V, L","M, V, L",55.534527777778,28.66022222
201209,"г. Орша, ул. Днепровская",,"M, V, L","M, V, L",54.499783333333,30.40971667
201210,"г. Орша, ул. Олега Кошевого",,"M, V, L","M, V, L",54.516388888889,30.38111111
201257,"г. Витебск, ул. Актеров Еременко",,"M, V, L","M, V, L",55.169197222222,30.278375
201270,"г. Витебск, ул. Актёров Ерёменко, в р-не дома 10",,"M, V, L","M, V",55.165367,30.276914
201350,"г.п. Лиозно, ул. Добромыслянская, 3Б",,"M, V, L","M, V",55.012305,30.811056
201362,"г. Дубровно, ул. Крупской",,"M, V, L",,54.568571,30.697601
201363,д. Красная Харьковка,"M, V, L",,,54.459444444,30.405833333
201364,"г. Орша, ул. 1-я Красная",,"M, V, L","M, V, L",54.514694,30.414444
201365,"г. Браслав, пер. Газетный",,"M, V, L","M, V",55.635902,27.03729
201375,"г. Лепель, пер. 2-й Мельничный",,"M, V, L",,54.888416666667,28.6775
201420,"г. Витебск, ул. 1-я Доватора, д. 3Б",,"M, V, L","M, V, L",55.195293,30.21415
201422,"г. Витебск, ул. Гражданская, д. 2",,"M, V, L","M, V",55.182075,30.192728
201480,"Октябрьский с/с, Аэропорт, 1",,"M, V, L",,55.132333333333,30.35826111
201482,"г. Витебск, ул. Баграмяна, в р-не д. 4",,"M, V, L","M, V",55.170111111111,30.266194444444
201486,"г. Новополоцк, ул. Промышленная, д. 6",,"M, V, L","M, V",55.521249,28.579904
201488,"г. Полоцк, ул. П.Бровки, д. 73",,"M, V, L","M, V, L",55.476193,28.741661
201507,"г. Витебск, ул. Терешковой, 17а",,"M, V, L","M, V",55.185777777778,30.25086111
201589,"г. Витебск, ул. К. Маркса, д. 30Б",,"M, V, L","M, V",55.187555555556,30.174277777778
201591, д. Конаши,"V, L",,,55.498722222,30.425472222
201612,"г. Бешенковичи, ул. Урицкого, д. 100",,"M, V, L","M, V",55.033889,29.456775
201617,"г. Толочин, ул. Островского, д. 37",,"M, V, L","M, V",54.415909,29.69005
201638,"г. Орша, ул. Народная, 1",,"M, V, L","M, V",54.508694444444,30.41788889
201649,"г. Витебск, пр-т Черняховского, д. 25/1",,"M, V, L","M, V",55.174667,30.195083
201661,"г. Витебск, ул. 6-я Суражская, д. 9",,"M, V, L","M, V, L",55.209432,30.229931
201670,"г. Орша, ул. Молодежная, д. 1",,"M, V, L","M, V, L",54.490055,30.394694
201696,"г. Глубокое, ул. Я. Коласа, д. 22Б",,"M, V, L",,55.126111,27.670691
201720,"г. Городок, ул. Толкачева, 10",,"M, V, L","M, V",55.472222222222,29.977944444444
201750,"г. Витебск, пр-т Фрунзе, д. 72",,"M, V, L",,55.195138888889,30.239555555556
201755,п. Высокое ,"M, V, L",,,54.637972222,30.432277778
201763,"д. Росица, ул. Центральная, в р-не д.85","V, L",,,55.921083333,27.748305556
201833,д. Ломачино,"M, V, L",,,54.502805556,30.238222222
201942, д. Скребни,"M, V, L",,,55.040722222,30.176138889
201947,н.п. Новая Заря,"M, V, L",,,55.595058333,29.917333333
201988,"г. Новополоцк, в районе жилых домов №166 и №180 по ул. Молодежной ",,"M, V, L","M, V",55.508752777778,28.699286111111
202068,"г. Новополоцк, ул. Нефтяников, д. 6",,"M, V, L","M, V, L",55.513569,28.682512
202069,"г. Полоцк, Вильнюсское шоссе, д.1",,"M, L",,55.471967,28.749475
202257,"г. Орша, ул. Заднепровская",,"M, V, L","M, V",54.484861111111,30.40838889
202258,д.  Коповище,"V, L",,,55.609416667,28.896888889
202385,"г. Витебск, ул. Терешковой, 25А/5",,"M, V, L","M, V",55.19116665,30.25405549
202504,"г. Новополоцк, ул. Молодежная, д. 25",,"M, V, L",,55.539906071803,28.636922887994
202514, н.п. Фариново,"M, V, L",,,55.42975,28.587416667
202515,"г. Новополоцк, ул. Молодежная, 94-б",,"M, V, L","M, V",55.532,28.65195833
202516,"г. Полоцк, ул. Комарова, 22",,"M, V, L","M, V, L",55.509313888889,28.77405556
202517,"г. Полоцк, ул. Бабушкина, 121б",,"M, V, L","M, V",55.473777777778,28.82838889
202518,"г. Новополоцк, ул. Ктаторова, 12",,"M, V, L","M, V, L",55.537761111111,28.63226389
202519,а.г. Гомель,"M, V, L",,,55.295833333,28.784361111
202520,н.п. Погирщино,"V, L",,,55.376722222,29.129527778
202524,"г. Полоцк, ул. Фабрициуса, 30",,"M, V, L","M, V, L",55.495391666667,28.80868333
202525,"г. Новополоцк, ул. Блохина, 27",,"M, V, L","M, V, L",55.532111111111,28.645
202526,"г. Новополоцк, ул. Дзержинского, 8",,"M, V, L","M, V, L",55.539605555556,28.62489444
202527,"г. Новополоцк, промзона, завод «Полимир» ОАО «Нафтан»",,"M, V, L","M, V",55.502866666667,28.59034722
202528,"г. Полоцк, ул. Скорины, 14",,"M, V, L","M, V",55.487925,28.77676111
202529,"г. Полоцк, ул. Вологина, 116",,"M, V, L",,55.541083333333,28.81500278
202531,д. Степанково,"M, V, L",,,55.24,29.960111111
202537, д. Струбки,"V, L",,,55.609638889,28.44375
202538,д. Неверово,"M, V, L",,,55.686472222,28.246777778
202539,д. Жовнино,"M, V, L",,,55.752805556,28.021
202540,д.Волчки,"M, V, L",,,55.509388889,27.371416667
202542,д. Тимошково,"V, L",,,55.635277778,28.043861111
202543, д.Селявщина,"V, L",,,55.812972222,28.801194444
202544,"г.п. Россоны, ул. Советская, 4",,"M, V, L",,55.903611111111,28.814444444444
202545,"г. Браслав, ул. Советская, 119",,"M, V, L",,55.639861111111,27.03088889
202549, д.Тродовичи,"V, L",,,55.829777778,29.22625
202550,"г. Витебск, ул. Карла Маркса, 53а",,"M, V, L","M, V",55.186469444444,30.16845
202552,"г. Витебск, ул. Академика Павлова, 23-2",,"M, V, L","M, V, L",55.17775,30.17938889
202554,"г. Витебск, пр. Фрунзе, 56",,"M, V, L","M, V, L",55.194522222222,30.23328333
202556,"г. Витебск, ул. Воинов интернационалистов, 37а",,"M, V, L","M, V",55.158866666667,30.22070556
202557,"г. Витебск, ул. 3-я Чепинская, 37а",,"M, V, L","M, V, L",55.210266666667,30.13313889
202558,"г. Витебск, пр. Чкалова, 17-1",,"M, V, L","M, V",55.174544444444,30.21083333
202559,"г. Витебск, ул. Гагарина, 68",,"M, V, L","M, V, L",55.214944444444,30.23016944
202560,"г. Витебск, пр. Победы, 7",,"M, V, L","M, V, L",55.171194444444,30.22390833
202561,"г. Витебск, пр. Московский, 51а",,"M, V, L","M, V",55.174944444444,30.24586111
202562,"г. Витебск, пр. Московский, 10",,"M, V, L","M, V, L",55.182572222222,30.206425
202563,"г. Витебск, ул. Замковая, 4",,"M, V, L","M, V",55.192972222222,30.20564167
202564,"г. Витебск, пр-т Московский, 46",,"M, V, L",,55.182,30.21811111
202565,"г. Витебск, ул. Максима Горького, 148/1",,"M, V, L","M, V, L",55.164361111111,30.12247222
202566,"г. Витебск, ул. Ленинградская, 155",,"M, V, L","M, V",55.206611111111,30.15722222
202567,"г. Витебск, ул. Белорусская, 6а",,"M, V, L","M, V, L",55.1965,30.19130556
202568,"г. Полоцк, ул. Зыгина, 55",,"M, V, L","M, V, L",55.495472222222,28.75752778
202569,"г. Полоцк, ул. Тябута, д. 37",,"M, V, L","M, V",55.477673,28.770463
202570,"г. Витебск, пр. Московский, 72",,"M, V, L","M, V, L",55.177861111111,30.23704167
202571,"г. Витебск, ул. Терешковой, 16/2",,"M, V, L","M, V, L",55.183833333333,30.24561111
202572,"г. Витебск, ул. Великолукский тракт, д. 15",,"M, V, L",,55.20947799831,30.211488033927
202573,"г. Витебск, ул. Петруся Бровки, 50",,"M, V, L","M, V",55.158202777778,30.23543333
202574,"г. Витебск, ул. Димитрова, 36-7",,"M, V, L","M, V",55.1857,30.19164722
202575,"г. Витебск, ул. Максима Горького, 145",,"M, V, L","M, V",55.171027777778,30.1265
202576,"г. Витебск, пр. Фрунзе, 77",,"M, V, L","M, V",55.195458333333,30.25283611
202577,"г. Витебск, ул. Чкалова, 7/1",,"M, V, L","M, V, L",55.179008333333,30.21106944
202578,"г. Витебск, ул. Краснофлотская, 1а",,"M, V, L","M, V, L",55.192563888889,30.24348889
202584,"г. Глубокое, ул. Ленина, 142",,"M, V, L","M, V, L",55.1401,27.66180278
202585,д. Озерцы,"M, V, L",,,55.190166667,27.775888889
202587,а.г. Торгуны,"V, L",,,54.937666667,27.856722222
202589," д. Крулевщина, ул. Черняховского, 2","M, V, L",,,55.025277778,27.775277778
202591,д.Симoново,"V, L",,,55.147555556,30.752277778
202592,н.п. Пальминка,"M, V, L",,,55.446191667,30.128138889
202593,"г. Чашники, ул. Гагарина, 20",,"M, V, L",,54.843222222222,29.19197222
202606, н.п. Селец,"V, L",,,54.330444444,29.740833333
202609,"г.п. Болбасово, ул. Сергея Грицевца",,"M, V, L",,54.420222222222,30.28583333
202631,"г. Орша, ул. Хигрина, 44",,"M, V, L","M, V, L",54.510916666667,30.40869444
202636,"г. Орша, ул. Станционная, 1-а",,"M, V, L","M, V, L",54.512380555556,30.36583056
202639,"г. Орша, ул. Мира, 39а",,"M, V, L","M, V",54.519405555556,30.40452778
204011,"г. Витебск, ул. 2-я Заречная",,"M, V, L","M, V",55.160305555556,30.14525
204014,"г. Витебск, ул. Медицинская, д. 4в",,"M, V, L","M, V",55.153976,30.220383
204032,"г. Витебск, ул. Сивакова, д. 12",,"M, V, L","M, V",55.20269,30.16122
204033,"г. Витебск, пр. Московский, 21-4",,"M, V, L","M, V, L",55.177438888889,30.21961111
204034,"г. Витебск, ул. 8-я Свердлова, 6",,"M, V, L","M, V",55.191830555556,30.17764722
204048,а.г. Мазолово,"M, V, L",,,55.283666667,30.143916667
204049,"г. Витебск, ул. Володарского, 96",,"M, V, L","M, V",55.214288888889,30.21851111
204097,"г. Витебск,  ул.Терешковой, д. 9",,"M, V, L","M, V",55.181222222222,30.248722222222
204099,"г. Витебск, ул. Вострецова, д.12",,"M, V, L",,55.17675,30.155486
204101,"г. Витебск, ул. Генерала Белобородова, 3",,"M, V, L","M, V, L",55.182469,30.200473
204121,"г. Витебск, ул. Сенненская",,"M, V, L","M, V",55.15998001027,30.181380088202
204124, д. Бецкое,"V, L",,,55.407861111,28.757027778
204163,"г. Витебск, ул. 7-я Луческая, д. 24",,"M, V, L",,55.167389,30.179928
204164,"г. Витебск, ул. Жесткова, д. 24",,"M, V, L","M, V, L",55.182722222222,30.213166666667
204167,"г. Витебск, пр-т Черняховского, 34В",,"M, V, L","M, V",55.169166666667,30.20125
204171,"г. Новополоцк, ОАО «Нафтан», промзона",,"M, V, L",,55.521758333333,28.52433056
204228,"г. Витебск, ул. Чапаева, 32",,"M, V, L","M, V, L",55.199861111111,30.23768889
204229,"г. Витебск, ул. Комсомольская, д. 34а",,"M, V, L","M, V, L",55.19025,30.19442
204231,"г. Городок, ул. Солнечная",,"M, V, L","M, V, L",55.44775,29.98072
204232,"г. Витебск, ул. Карла Маркса, 106",,"M, V, L","M, V, L",55.1801,30.15272222
204233,"г. Витебск, ул. Горбачевского, 26а",,"M, V, L","M, V",55.18214,30.18806
204234,н.п. Устье,"M, V, L",,,54.435527778,30.380611111
204235,"г. Витебск, ул. 3я линия, ГСК-19",,"M, V, L","M, V",55.214327,30.194502
204236,"г. Витебск, ул. Золотогорская",,"M, V, L","M, V, L",55.173138888889,30.13896944
204244,"г. Витебск, ул. Путна, 3",,"M, V, L",,55.201136111111,30.20366111
204252,"г. Витебск, ул. Воровского",,"M, V, L",,55.165444444444,30.112
204272,д. Рудня,"V, L",,,55.760138889,30.293805556
204326,"Мишковичи, ул. Саркисьянц, 13","V, L",,,55.189277778,29.355583333
204336,"г. Миоры, ул. Коммунистическая, 14",,"M, V, L","M, V",55.619727777778,27.62439722
204337,"г. Витебск, ул. Правды, 61а",,"M, V, L","M, V, L",55.180480555556,30.24001111
204338,"г. Орша, ул. 1-го мая, 129а",,"M, V, L","M, V",54.542530555556,30.43006111
204339,"г. Витебск, пр-т Людникова, д. 12",,"M, V, L",,55.198083333333,30.230833333333
204370,д. Рудня,"V, L",,,55.619333333,28.749833333
204390,"н.п. Париж, ул. Мелиоративная, 1 ","M, V, L",,,55.156611111,27.385
204497,"г. Витебск, ул. Мира, 37",,"M, V, L","M, V, L",55.198777777778,30.24702778
204515,"г. Новополоцк, ул. Молодежная, 189А-2",,"M, V, L","M, V",55.51394006304,28.69386411
204516,"г. Полоцк, ул. Мариненко, 5",,"M, V, L","M, V",55.472436111111,28.75427222
204517,"г. Новополоцк, ОАО «Полимир»",,"M, V, L","M, V",55.507463888889,28.56987222
204518,"г. Полоцк, ул. Осипенко, 28",,"M, V, L","M, V",55.487416666667,28.82216667
204519,а.г.Ильюшино,"V, L",,,55.098861111,28.557277778
204520,"г. Браслав, ул. Дзержинского, 71",,"M, V, L","M, V",55.648472222222,27.04702778
204521,"г. Поставы, ул. Советская, 3",,"M, V, L","M, V",55.112519444444,26.83900833
204524,"г. Полоцк, ул. Хруцкого",,"M, V, L","M, V",55.501444444444,28.74730556
204525,"г. Полоцк, ул. Стрелецкая, 10а",,"M, V, L","M, V",55.488888900427,28.76458321
204527,д. Субовщина,"M, V, L",,,55.53925,28.361166667
204528,д. Шатровки,"M, V, L",,,55.506777778,28.130805556
204529,"г. Полоцк, ул. Октябрьская, 25",,"M, V, L","M, V, L",55.489111111111,28.78476389
204532,"г.п. Шумилино, ул. Ленинская, 32",,"M, V, L","M, V, L",55.301194444444,29.61872222
204533,д. Мясоедово,"V, L",,,55.285277778,29.3505
204535,"г. Лепель, ул. Калинина, 94",,"M, V, L","M, V, L",54.882833333333,28.71105556
204536,д. Вировля,"V, L",,,55.648277778,29.857138889
204538,д. Задежье,"V, L",,,55.845,28.259833333
204541,"г. Верхнедвинск, ул. Мира, 4",,"M, V, L","M, V",55.765222222222,27.94122222
204543,"г. Миоры, ул. Кирова, 14",,"M, V, L","M, V",55.617277777778,27.65111667
204544,д. Сокорово,"V, L",,,55.105861111,29.113583333
204548,"г. Сенно, ул. Октябрьская, 73а",,"M, V, L",,54.808444444444,29.69683333
204551,"г. Витебск, ул. 5-я Фрунзе, 7",,"M, V, L","M, V, L",55.191927777778,30.221625
204552,"г. Витебск, Парк имени фрунзе, 1",,"M, V, L","M, V, L",55.194830555556,30.21133889
204553,"г. Витебск, ул. Янки Купалы, 6",,"M, V, L",,55.196972222222,30.20588889
204554,"г. Витебск, ул. Людникова, 13",,"M, V, L","M, V, L",55.196897021447,30.22516512
204555,"г. Витебск, ул. Полярная, 8",,"M, V, L","M, V, L",55.217858333333,30.25368889
204557,"г. Витебск, пр-т Строителей, 22Б",,"M, V, L","M, V, L",55.173011111111,30.23176111
204559,"г. Витебск, ул. Суворова, 46",,"M, V, L","M, V, L",55.204275,30.20540278
204562,"г. Витебск, пр-т Фрунзе, 83",,"M, V, L","M, V, L",55.196555555556,30.26430556
204568,"г. Витебск, пр. Правды, 70",,"M, V, L","M, V, L",55.182722222222,30.23794444
204569,"г. Витебск, ул. Ленинградская, 4",,"M, V, L","M, V, L",55.200586111111,30.17984722
204570,"г. Витебск, ул. Петруся Бровки, 17в/1",,"M, V, L","M, V, L",55.162305555556,30.23033333
204571,"г. Витебск, пр. Московский, 33",,"M, V, L","M, V, L",55.177638888889,30.22655556
204572,"г. Витебск, ул. Ильинского, 41",,"M, V, L","M, V, L",55.193911111111,30.19711667
204573,"г. Витебск, бытовой корпус",,"M, V, L","M, V",55.180361032717,30.167722053245
204574,"г. Витебск, ул. Офицерская, 4",,"M, V, L","M, V",55.182722222222,30.22444444
204575,"г. Новополоцк, ул. Молодежная, д. 95",,"M, V, L",,55.532567997943,28.663656081008
204577,н.п. Фролковичи,"M, V, L",,,55.204444444,29.228916667
204578,н.п. Березняки,"V, L",,,55.420027778,29.770444444
204579,н.п. Гребница,"V, L",,,55.329305556,29.786138889
204580,"аг. Бабиничи, ул. Калинина, 1в","M, V, L",,,55.261777778,30.352388889
204581,д. Плисса,"M, V, L",,,55.2265,27.982638889
204585,д. Мерецкие,"M, V, L",,,55.198833333,27.636388889
204587,"г. Поставы, ул. Космонавтов, д. 37",,"M, V, L",,55.120055617451,26.881611146687
204590,н.п. Лозово,"V, L",,,54.959722222,29.816222222
204591, д.Глоданки,"M, V, L",,,55.235555556,30.819805556
204592,н.п.Тимирязьево,"V, L",,,54.717222222,29.744944444
204593,д. Кисели,"V, L",,,54.71725,29.100222222
204594,д. Бабиновичи,"M, V, L",,,54.830138889,30.579722222
204595,н.п. Волково,"V, L",,,55.723972222,29.777111111
204596,д. Логовцы,"M, V, L",,,55.382055556,28.3635
204598,н.п. Беленево,"M, V, L",,,54.730666667,30.069361111
204600,"г. Орша, ул. Красногвардейская, 7",,"M, V, L","M, V, L",54.50335,30.36857222
204605,н.п. Заречье,"M, V, L",,,54.337111111,29.5235
204606,н.п. Галиевщина,"V, L",,,55.5395,27.519888889
204607,н.п. Вереньки,"V, L",,,54.989277778,26.749388889
204608,н.п. Лукашево,"V, L",,,55.043777778,27.036055556
204609, д. Дрозды,"V, L",,,55.069611111,27.360166667
204610,д. Квачи,"M, V, L",,,55.094305556,27.494111111
204613, д. Крынки,"M, V, L",,,55.020383333,30.438972222
204617, н.п. Козьяны,"V, L",,,54.588555556,30.91225
204618,"г. Глубокое, ул. Дзержинского, 19",,"M, V, L","M, V",55.129583333333,27.68338889
204619,"г. Толочин, ул. Тракторная, 32",,"M, V, L","M, V",54.403861111111,29.72433333
204620,"г. Лепель, пл. Свободы, 1",,"M, V, L","M, V",54.886083333333,28.6935
204621,"г.п. Лиозно, ул. Шоссейная, 5/1",,"M, V, L",,55.032111111111,30.79630556
204622,"г. Барань, ул. Николая Сорокина, 15В",,"M, V, L","M, V, L",54.485694444444,30.31233333
204630,н.п. Андреевщина магазин №15 Оршанского РАЙПО,"M, V, L",,,54.568194444,30.453194444
204631,н.п. Промышляды,"V, L",,,55.180305556,27.001916667
204632,н.п. Ферма,"M, V, L",,,54.625722222,30.175944444
204633,"г. Орша, ул. Советская, 72",,"M, V, L","M, V, L",54.498305555556,30.40238611
204634,"г. Орша, ул. Красноармейская, 14А",,"M, V, L","M, V",54.49975,30.43436111
204635,"г. Орша, ул. Шкловская, 34",,"M, V, L","M, V",54.487761111111,30.38551944
204636,"г. Орша, ул. Свердлова, 7а",,"M, V, L","M, V",54.518611111111,30.43727778
204637,"г. Орша, ул. Ивана Флерова, 2",,"M, V, L","M, V",54.488958333333,30.42298889
204638,д. Козяны,"M, V, L",,,55.305055556,26.852444444
204641,"н.п. Бабиничи, ОАО &quot;Оршанский райагросервис&quot;","M, V, L",,,54.428472222,30.441888889
204958,"г. Витебск, ул. Шмырева, 44",,"M, V, L",,55.15468,30.19231
204959,"г. Витебск, ул. Воинов-Интернационалистов, 37",,"M, V, L","M, V, L",55.158622222222,30.22533889
205008,"г. Витебск, ул. Горького , д. 57а",,"M, V, L","M, V",55.17312,30.15859
205009,"г. Витебск, пр-т Фрунзе, 23",,"M, V, L","M, V, L",55.192194444444,30.21622222
205010,"г. Витебск, Бешенковичское шоссе, 3-1",,"M, V, L","M, V",55.160280555556,30.16768056
205011,"г. Витебск, ул. Чкалова, 35",,"M, V, L","M, V, L",55.162333333333,30.20827778
205022,"Борздовский с/с, 15","M, V, L",,,54.45595,30.514638889
205092,"г. Полоцк, ул. Костецкой, д. 25а",,"M, V, L",,55.475753,28.814848
205170,"г. Новополоцк, ул. 5-я Линия, д. 5",,"M, V, L","M, V",55.54014,28.6314
205176,"г. Полоцк, в р-не ул. Машерова, д. 9а",,"M, V, L","M, V",55.492139,28.743639
205185,"г. Витебск, ул. Билевская",,"M, V, L","M, V",55.187139999388,30.287139861978
205198, д. Алантьево,"V, L",,,54.699833333,30.220555556
205200,"г. Новополоцк, ул. Комсомольская, 9",,"M, V, L","M, V",55.524916666667,28.65994444
205201,"г. Витебск, ул. Петруся Бровки, 13а/5",,"M, V, L","M, V",55.1675,30.23180556
205204,"г. Орша, ЦТП по  ул. Воз-ан-Влен",,"M, V, L","M, V, L",54.49234701241,30.43374189
205205,"г. Орша, ул. Мира, 78",,"M, V, L","M, V, L",54.513838888889,30.39195833
205207,д. Яново,"V, L",,,55.59825,27.508888889
205208,"д. Судники, ул. Полевая, 9а","M, V, L",,,55.263555556,30.079583333
205209,н.п. Крутки,"M, V, L",,,55.129055556,27.076222222
205211,"д. Теляки, ул. Центральная, 2в","M, V, L",,,55.203138889,26.821277778
205212,д. Губино,"M, V, L",,,55.038027778,28.953972222
205214,"г. Витебск, ул. Петруся Бровки, 5",,"M, V, L","M, V, L",55.172222222222,30.24172222
205215,д. Шугайлово,"M, V, L",,,54.539166667,30.504277778
205217,"г. Витебск, ул. Шаврова, 40",,"M, V, L",,55.21441694,30.20730584
205223,"г. Витебск, ул. Максима Горького, 145",,"M, V, L","M, V",55.168222222222,30.12958333
205225,"г. Полоцк, ул. Свердлова, 5",,"M, V, L","M, V",55.486055555556,28.77391667
205226,"г. Полоцк, ул. Хруцкого, 8",,"M, V, L","M, V",55.4975,28.748
205228,"г. Витебск, ул. Титова",,"M, V, L","M, V, L",55.197861111111,30.14938889
205229,"г. Полоцк, ул. Октябрьская, д. 54",,"M, V, L","M, V",55.491555636842,28.779527870479
205230,"г. Орша, ул. Могилёвская, 106",,"M, V, L","M, V, L",54.486583333333,30.44125
205232,"г. Витебск, ул. П.Бровки, 35",,"M, V, L","M, V, L",55.152863888889,30.22625278
205233,д. Новые Крюки,"V, L",,,55.654805556,27.855111111
205234, д. Лукавцы,"V, L",,,55.674888889,28.787833333
205237,"г. Новополоцк, район ул. Я.Коласа, 44",,"M, V, L",,55.52475,28.68138889
205241,д. Клинники,"V, L",,,54.662777778,28.079
205244,д. Стайки,"V, L",,,55.450222222,30.855555556
205246,д. Астрейково,"V, L",,,55.226305556,30.619166667
205247,"а.г. Задубровье, ул. Зои Космодемьянской, 9а","M, V, L",,,55.35025,30.663027778
205256,д. Гавраны,"V, L",,,55.536305556,26.665861111
205257, д. Локти,"V, L",,,55.923194444,29.285972222
205261,"г. Витебск, пр. Богатырева",,"M, V, L","M, V, L",55.168388888889,30.26416667
205275,"г. Новополоцк, ул. Василевцы",,"M, V, L","M, V",55.506575,28.69285833
205279,"г. Витебск, ул. Богатырева (р-н ж/д №13)",,"M, V, L","M, V, L",55.166472222222,30.26880556
205280,д. Полово,"V, L",,,55.304472222,27.165916667
205282,д. Григоровщина,"V, L",,,55.284055556,27.016333333
205283,"г. Чашники, ул. Советская, 24/2",,"M, V, L","M, V, L",54.859472222222,29.16094444
205284,"а.г. Иванск, ул. Спортивная,18А","M, V, L",,,54.930972222,29.152972222
205287,"г. Поставы, ул. Космонавтов,  22",,"M, V, L","M, V, L",55.116083333333,26.87794444
205288,д. Псуя,"M, V, L",,,55.215,28.161916667
205294,"г. Полоцк, ул. Промышленная, 15",,"M, V, L",,55.517,28.77147222
205296,д. Курино,"V, L",,,55.374444444,30.422666667
205313,"г. Витебск, ул. Коммунистическая, д. 8",,"M, V, L",,55.200289002881,30.209333074829
205318,"г. Витебск, ул. Чкалова, 49",,"M, V, L","M, V, L",55.158694444444,30.21225
205354,"г. Поставы, ул. Зелёная",,"M, V, L","M, V",55.119055555556,26.80913889
205368,"г. Орша, ул. Минская",,"M, V, L","M, V",54.506469444444,30.42533056
205445,д. Леомполье,"V, L",,,55.372611111,26.54525
205446,"г. Браслав, ул. Октября, 15",,"M, V, L","M, V, L",55.646438888889,27.03433056
205461,д. Лучно,"V, L",,,55.4305,28.963472222
205467,"д. Холомерье ул. Советская, 3","V, L",,,55.742388889,29.707972222
205515,"г. Витебск, ул. Горького, д. 75",,"M, V, L",,55.177165958876,30.144894158006
205520,"г. Витебск, пр. Черняховского, 14а",,"M, V, L","M, V, L",55.179444444444,30.20394444
205521,"г. Поставы, ул. Юбилейная, 8",,"M, V, L","M, V, L",55.109805555556,26.86336111
205522,"г. Новополоцк, в районе ул. Молодёжная, 253 ",,"M, V, L","M, V",55.505819444444,28.7085
205523,"г. Полоцк, ул. Бровки, 47",,"M, V, L","M, V, L",55.47275,28.76569444
205524,"г. Новополоцк, ул. Молодежная, 148",,"M, V, L","M, V",55.524416666667,28.67416667
205525,"г. Полоцк, ул. Я. Купалы, д. 16",,"M, V, L",,55.496521995175,28.785764843985
205526,"г. Новополоцк, м. Виторжье",,"M, V, L",,55.560222222222,28.583388888889
205527,"г. Полоцк, ул. Пушкина, 2",,"M, V, L","M, V, L",55.483722222222,28.78380556
205528,"г. Новополоцк, ул. Молодежная, 132",,"M, V, L","M, V",55.527255555556,28.66487222
205529,"г. Новополоцк, ул. Молодежная, 1/в",,"M, V, L","M, V",55.544358333333,28.62095556
205530,д. Васюки,"V, L",,,55.320805556,27.3365
205531,"г.п. Шумилино, ул. 70 лет БССР, 6",,"M, V, L","M, V",55.290388888889,29.62683333
205532,"д. Боровка ул. Московская, 1, цех ОАО Верхнедвинский райагросервис","M, V, L",,,55.818444444,27.929444444
205533,д. Городиловичи,"V, L",,,56.020861111,28.272305556
205534,д. Стрелки,"V, L",,,55.927638889,28.204138889
205535,д. Владычино,"M, V, L",,,55.653333333,28.623055556
205536,д.Бобовики,"V, L",,,55.623916667,29.081888889
205537,д. Громовки,"V, L",,,55.910583333,27.939333333
205539,д. Долгиново,"V, L",,,55.737444444,27.799277778
205540,"г. Новополоцк, ул. Я. Коласа",,"M, V, L","M, V",55.520636111111,28.69109444
205541,д. Самуйлы,"M, V, L",,,55.617027778,27.269638889
205542,д. Силово,"V, L",,,55.659611111,27.73725
205543,н.п. Сынодворцы,"V, L",,,55.456944444,27.485388889
205544,д. Юховичи,"V, L",,,56.018194444,28.643416667
205545,"г. Лепель, ул. Калинина, 74",,"M, V, L","M, V",54.881444444444,28.70225
205546,д. Белусишки,"M, V, L",,,55.590972222,26.896194444
205548,"г. Дубровно, ул. Вокзальная, 34",,"M, V, L",,54.582083333333,30.67505556
205551,"г. Витебск, пр. Строителей, 1",,"M, V, L","M, V",55.172566666667,30.20080278
205552,"г. Витебск, ул. Космонавтов, 10а",,"M, V, L","M, V, L",55.193972222222,30.1855
205553,"г. Витебск, ул. 3-я Суражская",,"M, V, L","M, V",55.207638888889,30.22355556
205554,"г. Витебск, пр-т Победы, 23д",,"M, V, L","M, V",55.165611111111,30.22139722
205556,"г. Витебск, магазин №139 Веста",,"M, V, L",,55.173944397072,30.218222155705
205558,"г. Витебск, ул. Баумана, 20",,"M, V, L","M, V, L",55.197708333333,30.21730278
205559,"г. Витебск, ул. Ясеневая, д. 15",,"M, V, L",,55.231083386997,30.169972092864
205560,"г. Витебск, ул. Смоленская, 8",,"M, V, L","M, V",55.181972222222,30.22866667
205562,д. Проземле,"M, V, L",,,54.861194444,29.101138889
205563,"г. Витебск, ул. Чкалова, 34",,"M, V, L","M, V",55.167994444444,30.21226944
205565,"г. Витебск, р-н ж/д станции «Лучеса»",,"M, V, L","M, V",55.153944444444,30.21008333
205567,н.п. Зеленый Остров,"V, L",,,54.823277778,28.831972222
205568,н.п. Зорница,"V, L",,,54.898805556,28.825138889
205569,д. Жучки 11а,"V, L",,,54.743194444,29.261138889
205570, д. Гриньки,"V, L",,,54.807083333,29.339694444
205571,"а.г. Черея ул. Горская, д. 34","V, L",,,54.618361111,29.291722222
205572,д.  Большие Липовичи 1а,"V, L",,,54.71825,29.445472222
205573,"г.п. Бешенковичи, ул. Черняховского, 1",,"M, V, L","M, V",55.043861111111,29.47497222
205574,"г. Городок, ул. Садовая, 12",,"M, V, L","M, V, L",55.45975,29.98869444
205576,"г. Витебск, ул. Шрадера, 1",,"M, V, L","M, V, L",55.186472222222,30.20823611
205577,д. Березино переулок садовый,"V, L",,,54.906972222,28.184888889
205578,д. Лесины,"V, L",,,54.990194444,28.217638889
205579,н.п. Поплавки,"V, L",,,54.924138889,28.534833333
205581,"д. Пустоселье, 1а","V, L",,,54.872472222,28.053527778
205582,д. Заслонова,"M, V, L",,,54.89375,28.919
205583,н.п. Замошанская,"V, L",,,54.7955,29.550583333
205584,"г.п. Шарковщина, ул. Водопьянова, 12",,"M, V, L","M, V",55.365111111111,27.46480556
205586,"г. Глубокое, ул. Комсомольская, 33",,"M, V, L","M, V",55.149341666667,27.69450833
205587," н.п. Нестеровщина, ул. Полевая, 10","V, L",,,54.958416667,28.004027778
205592,д. Лялевщина,"V, L",,,55.703361111,30.43975
205594,"г. Новополоцк, ул. Школьная, 7",,"M, V, L","M, V, L",55.535138888889,28.64097222
205596,д. Мосейки,"V, L",,,54.826388889,30.01275
205597,н.п. Пламя,"V, L",,,54.680944444,29.621222222
205598,н.п. Ковали,"V, L",,,54.820888889,29.911
205599,н.п. Синегорское,"V, L",,,54.851638889,29.791861111
205612,"д. Вишневцы, 60","V, L",,,54.899916667,27.423194444
205613,"д. Отрубок, Вилейская, 1а","V, L",,,54.832444444,27.711277778
205619,д. Межаны,"V, L",,,55.645055556,26.776388889
205629,д. Пешковцы,"V, L",,,54.995388889,26.377666667
205630,д. Мисянцы,"V, L",,,55.472916667,26.79225
205632,"г. Орша, ул. Ленина, 214-а",,"M, V, L","M, V, L",54.535722222222,30.44291667
205636,"г. Орша, ул. Корначенка, 15",,"M, V, L","M, V, L",54.521833333333,30.37275
205637,"г. Витебск, ул. Лазо, 110",,"M, V, L","M, V, L",55.202,30.25802778
205639,"г. Орша, ул. Комсомольская, 2",,"M, V, L","M, V, L",54.511866666667,30.42153611
205682,н.п. Почаевичи,"M, V, L",,,54.796666667,29.135611111
205970,"г. Витебск, ул. 1-я Журжевская, 18",,"M, V, L",,55.249480555556,30.25868333
205974,"г. Лепель, ул. Борисовский тракт, 146Б",,"M, V, L",,54.866830555556,28.66881111
206134,"г. Витебск, пересечение ул. Короткевича и ул. Богатырева",,"M, V, L",,55.170772,30.257406
206135,"г. Витебск, р-н ул. Короткевича, 20",,"M, V, L","M, V",55.167416669444,30.255691666667
206195,н.п. Гута,"M, V, L",,,55.201963888889,27.199444444444
206276,"г. Полоцк, ул. Невельская",,"M, V, L",,55.500888888889,28.826361111111
206279,г. Орша в р-не ул. Завадского ,,"M, V, L",,54.492411,30.443436
206321,"г. Витебск, ул. Короткевича",,"M, V, L",,55.173504722222,30.2582575
206498,"г. Орша, ул. Белинского, д.2",,"M, V","M, V",54.527515555556,30.438443333333
211705,н.п. Антоновка,"M, V, L",,,54.349383333,30.443611126
211706,н.п. Асташево,"M, V, L",,,55.111606779,30.885350555
211707,д. Ахремовцы,"M, V, L",,,55.578145797,27.112196534
211709,Башни,"M, V, L",,,55.229253373,29.683159805
211710,г.п. Бегомль,"M, V, L",,,54.73775947,28.074618034
211711,Бегомль,"V, L",,,54.772256894,27.981885466
211714,н.п. Бикложа,"M, V, L",,,55.06551296,29.558514913
211716,д. Вороничи (Близница),"M, V, L",,,55.327547571,28.646370259
211718,н.п. Богданово,"M, V, L",,,54.859460127,29.651907142
211720,"н.п.  Богушевск, ул. Горбунова, 7а","M, V, L",,,54.843252778,30.211847232
211721,"н.п. Болбасово, ул. Бетонная, 8А",,"M, V, L",,54.418302222222,30.294543611111
211722, н.п. Большая Выдрея,"M, V, L",,,55.019136111,30.573736131
211723,н.п. Боровка Военный санаторий &quot;Лепельский&quot;,"M, V, L",,,54.953058333,28.797633333
211724,н.п. Бочейково,"M, V, L",,,55.017985556,29.140132444
211725,"н.п. Красносельцы, ул. Двинская, 67","M, V, L",,,55.641574399,26.990356475
211727,н.п. Будилово,"M, V, L",,,55.106373313,29.719681839
211728,д. Буяны,"M, V, L",,,55.343377377,30.1098207
211730,н.п. Великое Село,"M, V, L",,,55.09911266,30.584042963
211732,д. Веретеи,"M, V, L",,,55.02110324,27.72379643
211735,н.п. Жерносеки,"M, V, L",,,55.417698269,28.465564701
211736,"н.п. Видзы, ул. Советская, 1","M, V, L",,,55.396475,26.628333333
211737,"д. Воропаево, ул. Школьная, 13","M, V, L",,,55.147922222,27.204072222
211739,н.п. Гендики,"M, V, L",,,55.542183333,28.780411111
211740,н.п. Германовичи,"M, V, L",,,55.419011713,27.72650244
211745,н.п. Городчевичи,"M, V, L",,,54.854578871,28.909401557
211747,д. Григоровщина,"M, V, L",,,55.821818557,27.639927483
211748,н.п. Гурки,"M, V, L",,,55.78773023,30.016034828
211749,"г. Дисна, ул. Ленина, 68","M, V, L",,,55.553237193,28.213059346
211751,"д. Домашковичи, Санаторий КГБ &quot;Лесное&quot;","V, L",,,54.594631026,27.992027984
211753,"д. Друя, ул. Ленина, 72в","M, V, L",,V,55.787411145,27.464316223
211754,"н.п.  Дубровно ул. Задубровская, 50","M, V, L",,,54.568664946,30.667429877
211756,д. Дутчино,"M, V, L",,,55.264800216,30.127716027
211757,д. Еремино,"M, V, L",,,55.127131295,30.460731999
211759,н.п. Заборовье,"M, V, L",,,55.006661717,28.73423032
211760,д. Завыдрино,"M, V, L",,,55.098110974,28.749394623
211762,н.п. Задровье,"M, V, L",,,54.498763386,30.126046463
211763,н.п. Замосточье,"M, V, L",,,54.658018418,27.967502344
211765,н.п. Заозерье,"M, V, L",,,55.389270558,28.819605112
211766,н.п. Заольша,"M, V, L",,,54.992112331,30.945622523
211768,д. Заходники,"M, V, L",,,55.047601541,30.32669127
211769,д. Зельки,"V, L",,,55.612404566,28.281818152
211770,д. Зюзино,"M, V, L",,,55.510859959,28.953812713
211772,н.п. Иоды,"M, V, L",,,55.452046585,27.211882585
211773, н.п. Кальник,"M, V, L",,,54.771237147,28.179115054
211774,н.п. Камаи,"M, V, L",,,55.064974412,26.609053787
211777,н.п. Клюковка,"M, V, L",,,54.747453438,30.428957718
211778,а.г. Клястицы,"M, V, L",,,55.882835965,28.601452559
211779,д. Койтово,"M, V, L",,,55.316482287,30.310302293
211781,"н.п.  Копысь, ОАО &quot;Оршанский молочный комбинат&quot;","M, V, L",,,54.330853838,30.304066827
211782,н.п. Корово,"M, V, L",,,54.569116172,30.320510997
211783,д. Косаревщина,"M, V, L",,,55.037289458,29.324062547
211784,н.п. Коханово,"M, V, L",,,54.453248227,30.007574723
211793,"н.п. Луг Верховский с/с, 3","M, V, L",,,54.930281093,29.354600723
211794,д. Лужки,"M, V, L",,,55.34514689,27.872899423
211796,н.п. Луни,"M, V, L",,,55.718271301,27.158164379
211798,н.п. Ляды,"M, V, L",,,54.60297044,31.153373856
211799,н.п. Малашенки,"M, V, L",,,55.616636211,29.989990168
211800,н.п. Малая Пуща,"M, V, L",,,55.454751983,29.131904771
211804,н.п. Михеевка,"V, L",,,54.65785199,31.096953763
211805,н.п. Мошканы,"M, V, L",,,54.957612435,30.053698839
211806,н.п. Муравничи,"M, V, L",,,54.425424718,29.601299586
211807,"н.п. Мурашки, д2","M, V, L",,,55.605361111111,27.397138888889
211809,д. Новики,"M, V, L",,,55.213251997,29.93743578
211810,н.п. Новка,"M, V, L",,,55.129388889,30.157388897
211819,"г. Новополоцк, ул. Армейская, 2",,"M, V, L",,55.589544444,28.588213889
211822,"г. Оболь, ул. Ленина, 10","M, V, L",,,55.353998983,29.307862674
211823,н.п. Обухово,"M, V, L",,,54.615319098,30.401976414
211824,н.п. Озерцы ,"M, V, L",,,54.43461045,29.777771626
211826,"н.п. Октябрьский, ул. Мира, 9А","M, V, L",,,54.869941667,29.343041668
211827,"а.г. Октябрьская, ул. Молодежная, 24","M, V, L",,,55.125234827,30.268102768
211828,"н.п. Ольгово, ул. Техническая","M, V, L",,,55.229212034,30.214504125
211829,н.п. Опса,"M, V, L",,,55.533061306,26.821682169
211830,"н.п. Ореховск, ул. БелГРЭС, 35а","M, V, L",,,54.694380555,30.495652795
211839,н.п. Осинторф,"M, V, L",,,54.714108209,30.658256257
211840,н.п. Осипово,"M, V, L",,,54.908162662,30.379490977
211841,"н.п. Островенец, ул. Телевизионная, 3/4 ","M, V, L",,,55.244523922,28.641691795
211842,н.п. Островно,"M, V, L",,,55.146346029,29.834629939
211844,н.п. Петровщина,"M, V, L",,,55.246788475,27.549508754
211846, д. Урбаны,"M, V, L",,,55.706917179,26.876095961
211847,"н.п. Подсвилье ул. Советская, 83","M, V, L",,,55.13405,27.967755556
211854,д. Поляи,"M, V, L",,,55.167362043,30.360187136
211855,н.п.Понизовье (АГРО Ленино),"M, V, L",,,54.442770998,31.078415243
211856,н.п. Поречье,"M, V, L",,,54.998534005,28.893526528
211857,д. Новая Веска (Порплище),"M, V, L",,,54.918764014,27.610088116
211859,н.п. Прозороки,"M, V, L",,,55.29722,28.202223888889
211860, д. Рашковка,"M, V, L",,,54.85783326,27.8554391
211862,"г. Витебск, ул. Центральная, 23","M, V, L","M, V, L",,55.293652883,30.308667526
211864,н.п. Савин Дуб ,"M, V, L",,,54.927800833333,28.416301944444
211865,д. Сватошицы,"M, V, L",,,54.500211548,30.774459997
211869,н.п. Парковая Смоляны,"M, V, L",,,54.594112461,30.031248623
211871, д. Сорочино,"M, V, L",,,55.199077701,28.769987773
211872,д. Старая Будовка,"M, V, L",,,54.396614583,29.458298761
211873,д. Ствольно,"M, V, L",,,54.767983333,28.324625
211874, н.п. Стражево,"M, V, L",,,54.564762665,30.59640727
211878,"г.п. Сураж ул. Советская, 3","M, V, L",,,55.407847222,30.723813915
211879,д. Тетча,"M, V, L",,,55.225554671,28.939714994
211883,н.п. Узгой,"M, V, L",,,54.492757106,29.806380267
211884,"н.п. Улла, ул. Кореневского, д.18","M, V, L",,,55.224074108,29.236292696
211885,н.п. Усвейка-Курчевская,"M, V, L",,,54.554305555,29.771769448
211886,н.п. Устье,"M, V, L",,,55.846347377,27.878923092
211891, н.п. Черница,"M, V, L",,,54.769859466,28.533072702
211892, н.п. Черноручье,"M, V, L",,,54.828839349,28.668542498
211893,"н.п. Шайтерово, ул. Сельская","M, V, L",,,55.710560844,28.095242845
211894,а.г. Шапечино,"M, V, L",,,55.003711111,30.299947234
211899,н.п. Шуховцы,"M, V, L",,,54.687018383,30.874344269
211901,н.п. Язвино,"M, V, L",,,55.261570258,29.754175985
211903,"г.п. Яновичи, ул. Юбилейная, 10","M, V, L",,,55.299733344,30.69698337
211905,д. Куковячино,"M, V, L",,,55.163331462,30.009533219
212244, д. Жихари,"M, V, L",,,55.573673534,28.909913209
212250,н.п. Путятино,"M, V, L",,,54.496150409,30.962738454
212251,д. Перемонт (АГРО Добромысли),"M, V, L",,,54.941268297,30.677284804
212290,д. Жавнина (Великие Дольцы),"M, V, L",,,55.054085839,28.403312934
212327,а.г. Березки,"M, V, L",,,54.703274975,27.809122422
212328,д. Дорожки,"M, V, L",,,55.369146587,28.151117838
212330,д. Косовщина (АГРО Васюки),"M, V, L",,,55.290756766,27.230569177
212440,н.п. Мариамполь,"M, V, L",,,55.399452778,30.021191673
212441,"севернее н.п. Булавки, дачи &quot;Медик&quot;","M, V, L",,,55.594192299,28.786767319
212466,н.п. Самсоны,"M, V, L",,,54.885324869,29.755786511
212467,н.п. Свирани,"M, V, L",,,54.353661967,29.962356296
212469,а.г. Соколище (Латышево),"M, V, L",,,55.768495497,28.610482329
212530,н.п. Поставы,"M, V, L",,,55.110531852,26.815213454
212544,н.п. Замошье,"V, L",,,54.630141134,29.810602509
212545,д. Дроздово,"M, V, L",,,54.590235397,30.14297824
212583,д. Пестуница,"M, V, L",,,55.2730455,29.996165753
212584,н.п. Мыльнище,"M, V, L",,,55.575321403,29.788359542
212585,н.п. Григоровичи,"V, L",,,54.798830409,28.956038814
212586,д. Тычки,"M, V, L",,,55.709030949,27.576674938
212587,а.г. Матюши,"V, L",,,55.683690946,28.539997389
212588,д. Запрудье,"M, V, L",,,54.580546492,29.522959601
212589,н.п. Кубличи,"M, V, L",,,55.163036585,28.329981124
212590,д. Богданово,"M, V, L",,,54.580740175,28.713064402
212592,н.п. Мишневичи,"M, V, L",,,55.438603264,29.600554801
212593,н.п. Медведские,"V, L",,,55.825383781,28.116947282
212594,н.п.Мостовуха,"V, L",,,55.699278001,28.827832361
212595, д. Скрыдлево,"M, V, L",,,55.033305663,30.064075222
212827,н.п.  Ярево Мех. ,"M, V, L",,,55.149724659,26.696061528
212828, н.п. Кривое Село,"M, V, L",,,55.145070902,29.576886051
212845,н.п. Россасно,"M, V, L",,,54.645497734,30.887285613
212873,"н.п. Зубревичи, ул. Молодежная, 17","M, V, L",,,54.397389213,30.215542945
212884,"н.п. Борковичи, ул. 1-ая Лесозаводская, 39","M, V, L",,,55.673227556,28.32549095
212960,"г. Новополоцк, ул. Заречная, 8 ",,"M, V, L",,55.558388889,28.6805
213222,д. Низкоборье,"M, V, L",,,55.539691187,30.821869088
213643,д. Тетерки,"M, V, L",,,55.277120142,30.224649151
213798,Национальный Парк &quot;Браславские Озера&quot;,"V, L",,,55.735333333,27.117611111
213811,"н.п. Лепель, ул. Борисовский тракт, 102","M, V, L",,,54.874937102,28.678246204
213836,"н.п. Бигосово, ул. Молодежная, 7","M, V, L",,,55.837365988,27.738877002
213846,"д. Тулово, ул. Витебская, 3","M, V, L",,,55.206388645,30.287206076
213935,д. Бегомль,"V, L",,,54.70923415,28.060266755
214157,д. Кировская,"M, V, L",,,55.193043745,30.107474192
215207,н.п. Селище ,"M, V, L",,,54.616627785,30.491630567
215296, д. Доброплесы,"V, L",,,55.985766422,28.44897477
215354,"г. Витебск, ул. Богатырёва",,"M, V, L",,55.165333333333,30.288611111111
215986," д. Костино, М1","M, V, L",,,54.680361815,30.768609757
216015,д. Изубрица,"V, L",,,56.020744157,28.452509348
216119,н.п. Дуковщина,"V, L",,,55.096992222222,29.270786388889
216617,д. Долгое,"M, V, L",,,54.93304645,28.95371388
216628,н.п. Малое Ситно,"M, V, L",,,55.691615266,29.353815841
216634, д. Машница,"V, L",,,55.736608543,28.651028419
217046,д.  Золово,"V, L",,,55.521460053,27.074600574
217114, н.п. Переволочня,"M, V, L",,,54.469414199,29.933111458
217116,н.п. Красная горка,"M, V, L",,,54.376989188,29.693137034
217119,н.п. Лесничие,"M, V, L",,,54.717382666,30.280316741
217120,д. Ляхи,"V, L",,,54.929742564,30.189112269
217123,н.п. Стайки,"M, V, L",,,54.686001644,30.316101875
217124,д. Сосновка,"M, V, L",,,55.083589715,30.163904665
217237,н.п. Добрино,"M, V, L",,,54.783138889,30.270861122
217239,д. Новязки,"V, L",,,54.889009709,30.209498436
217240,н.п. Подберезье,"M, V, L",,,54.441429351,29.860385582
217355,н.п Устье,"M, V, L",,,55.378356434,26.817612659
217390, д. Светлые,"M, V, L",,,55.669389674,29.991699806
217391,н.п. Куриленки,"M, V, L",,,55.746174876,29.972199032
217825,н.п. Секеровщина,"M, V, L",,,55.517491388889,28.8815925
217933,д. Добрино,"M, V, L",,,55.322008611111,29.505838611111
218037,"н.п. Болбасово, ул. Заводская, д. 1К","M, V, L",,,54.445227777778,30.291785
219322,д. Тригубцы,"M, V, L",,,55.300898055556,30.247247777778
237874,н.п. Болбасово,,"M, V, L",,54.428242252,30.284838956
